{
"type": "FeatureCollection",
"crs": { "type": "name", "properties": { "name": "urn:ogc:def:crs:OGC:1.3:CRS84" } },
"features": [
{ "type": "Feature", "properties": { "name": "Bickleton", "id": "450668:WA:COOP", "datasource": "NRCS" }, "geometry": { "type": "Point", "coordinates": [ -120.3006, 45.998, 3020.0 ] } },
{ "type": "Feature", "properties": { "name": "Quartz Peak", "id": "707:WA:SNTL", "datasource": "NRCS" }, "geometry": { "type": "Point", "coordinates": [ -117.08938, 47.87927, 4700.0 ] } },
{ "type": "Feature", "properties": { "name": "Meadows Pass", "id": "897:WA:SNTL", "datasource": "NRCS" }, "geometry": { "type": "Point", "coordinates": [ -121.47197, 47.28312, 3230.0 ] } },
{ "type": "Feature", "properties": { "name": "Pope Ridge", "id": "699:WA:SNTL", "datasource": "NRCS" }, "geometry": { "type": "Point", "coordinates": [ -120.56622, 47.9909, 3590.0 ] } },
{ "type": "Feature", "properties": { "name": "Easy Pass", "id": "998:WA:SNTL", "datasource": "NRCS" }, "geometry": { "type": "Point", "coordinates": [ -121.43895, 48.85933, 5270.0 ] } },
{ "type": "Feature", "properties": { "name": "Harts Pass", "id": "515:WA:SNTL", "datasource": "NRCS" }, "geometry": { "type": "Point", "coordinates": [ -120.6586, 48.72047, 6490.0 ] } },
{ "type": "Feature", "properties": { "name": "Marten Ridge", "id": "999:WA:SNTL", "datasource": "NRCS" }, "geometry": { "type": "Point", "coordinates": [ -121.69823, 48.76292, 3520.0 ] } },
{ "type": "Feature", "properties": { "name": "Stampede Pass", "id": "788:WA:SNTL", "datasource": "NRCS" }, "geometry": { "type": "Point", "coordinates": [ -121.34162, 47.27427, 3850.0 ] } },
{ "type": "Feature", "properties": { "name": "Huckleberry Creek", "id": "928:WA:SNTL", "datasource": "NRCS" }, "geometry": { "type": "Point", "coordinates": [ -121.58778, 47.06565, 2250.0 ] } },
{ "type": "Feature", "properties": { "name": "Cougar Mountain", "id": "420:WA:SNTL", "datasource": "NRCS" }, "geometry": { "type": "Point", "coordinates": [ -121.67138, 47.27666, 3200.0 ] } },
{ "type": "Feature", "properties": { "name": "Salmon Meadows", "id": "728:WA:SNTL", "datasource": "NRCS" }, "geometry": { "type": "Point", "coordinates": [ -119.8383, 48.65518, 4460.0 ] } },
{ "type": "Feature", "properties": { "name": "Beaver Pass", "id": "990:WA:SNTL", "datasource": "NRCS" }, "geometry": { "type": "Point", "coordinates": [ -121.2555, 48.8793, 3630.0 ] } },
{ "type": "Feature", "properties": { "name": "Trinity", "id": "1171:WA:SNTL", "datasource": "NRCS" }, "geometry": { "type": "Point", "coordinates": [ -120.8493, 48.0747, 2930.0 ] } },
{ "type": "Feature", "properties": { "name": "Gold Mountain", "id": "1256:WA:SNTL", "datasource": "NRCS" }, "geometry": { "type": "Point", "coordinates": [ -118.4559, 48.18934, 4390.0 ] } },
{ "type": "Feature", "properties": { "name": "Spruce Springs", "id": "984:WA:SNTL", "datasource": "NRCS" }, "geometry": { "type": "Point", "coordinates": [ -117.54155, 46.18287, 5700.0 ] } },
{ "type": "Feature", "properties": { "name": "Buckinghorse", "id": "1107:WA:SNTL", "datasource": "NRCS" }, "geometry": { "type": "Point", "coordinates": [ -123.45747, 47.7086, 4870.0 ] } },
{ "type": "Feature", "properties": { "name": "Lyman Lake", "id": "606:WA:SNTL", "datasource": "NRCS" }, "geometry": { "type": "Point", "coordinates": [ -120.91678, 48.19798, 5980.0 ] } },
{ "type": "Feature", "properties": { "name": "Pinto Rock", "id": "1263:WA:SNTL", "datasource": "NRCS" }, "geometry": { "type": "Point", "coordinates": [ -121.94219, 46.32318, 4440.0 ] } },
{ "type": "Feature", "properties": { "name": "Mowich", "id": "941:WA:SNTL", "datasource": "NRCS" }, "geometry": { "type": "Point", "coordinates": [ -121.95232, 46.92833, 3160.0 ] } },
{ "type": "Feature", "properties": { "name": "Gold Axe Camp", "id": "1159:WA:SNTL", "datasource": "NRCS" }, "geometry": { "type": "Point", "coordinates": [ -118.9864, 48.9516, 5360.0 ] } },
{ "type": "Feature", "properties": { "name": "Swamp Creek", "id": "975:WA:SNTL", "datasource": "NRCS" }, "geometry": { "type": "Point", "coordinates": [ -120.78267, 48.57142, 3930.0 ] } },
{ "type": "Feature", "properties": { "name": "Alpine Meadows", "id": "908:WA:SNTL", "datasource": "NRCS" }, "geometry": { "type": "Point", "coordinates": [ -121.69847, 47.77957, 3500.0 ] } },
{ "type": "Feature", "properties": { "name": "Green Lake", "id": "502:WA:SNTL", "datasource": "NRCS" }, "geometry": { "type": "Point", "coordinates": [ -121.17093, 46.54741, 5920.0 ] } },
{ "type": "Feature", "properties": { "name": "Pepper Creek", "id": "1104:WA:SNTL", "datasource": "NRCS" }, "geometry": { "type": "Point", "coordinates": [ -121.95555, 46.10242, 2140.0 ] } },
{ "type": "Feature", "properties": { "name": "Skate Creek", "id": "1257:WA:SNTL", "datasource": "NRCS" }, "geometry": { "type": "Point", "coordinates": [ -121.83044, 46.64336, 3770.0 ] } },
{ "type": "Feature", "properties": { "name": "Hozomeen Camp", "id": "991:WA:SNTL", "datasource": "NRCS" }, "geometry": { "type": "Point", "coordinates": [ -121.07976, 48.98075, 1690.0 ] } },
{ "type": "Feature", "properties": { "name": "Lost Horse", "id": "599:WA:SNTL", "datasource": "NRCS" }, "geometry": { "type": "Point", "coordinates": [ -121.08095, 46.3575, 5120.0 ] } },
{ "type": "Feature", "properties": { "name": "Spencer Meadow", "id": "776:WA:SNTL", "datasource": "NRCS" }, "geometry": { "type": "Point", "coordinates": [ -121.92661, 46.1795, 3400.0 ] } },
{ "type": "Feature", "properties": { "name": "Rainy Pass", "id": "711:WA:SNTL", "datasource": "NRCS" }, "geometry": { "type": "Point", "coordinates": [ -120.7358, 48.51865, 4890.0 ] } },
{ "type": "Feature", "properties": { "name": "Spirit Lake", "id": "777:WA:SNTL", "datasource": "NRCS" }, "geometry": { "type": "Point", "coordinates": [ -122.1772, 46.26113, 3520.0 ] } },
{ "type": "Feature", "properties": { "name": "Olallie Meadows", "id": "672:WA:SNTL", "datasource": "NRCS" }, "geometry": { "type": "Point", "coordinates": [ -121.44213, 47.37406, 4030.0 ] } },
{ "type": "Feature", "properties": { "name": "Trough", "id": "832:WA:SNTL", "datasource": "NRCS" }, "geometry": { "type": "Point", "coordinates": [ -120.29412, 47.23328, 5480.0 ] } },
{ "type": "Feature", "properties": { "name": "Swift Creek", "id": "1012:WA:SNTL", "datasource": "NRCS" }, "geometry": { "type": "Point", "coordinates": [ -122.18402, 46.1638, 4440.0 ] } },
{ "type": "Feature", "properties": { "name": "Morse Lake", "id": "642:WA:SNTL", "datasource": "NRCS" }, "geometry": { "type": "Point", "coordinates": [ -121.4827, 46.90585, 5410.0 ] } },
{ "type": "Feature", "properties": { "name": "Mount Gardner", "id": "898:WA:SNTL", "datasource": "NRCS" }, "geometry": { "type": "Point", "coordinates": [ -121.56812, 47.35768, 2920.0 ] } },
{ "type": "Feature", "properties": { "name": "Thunder Basin", "id": "817:WA:SNTL", "datasource": "NRCS" }, "geometry": { "type": "Point", "coordinates": [ -120.9895, 48.52753, 4320.0 ] } },
{ "type": "Feature", "properties": { "name": "Burnt Mountain", "id": "942:WA:SNTL", "datasource": "NRCS" }, "geometry": { "type": "Point", "coordinates": [ -121.94032, 47.0444, 4170.0 ] } },
{ "type": "Feature", "properties": { "name": "Moses Mtn", "id": "644:WA:SNTL", "datasource": "NRCS" }, "geometry": { "type": "Point", "coordinates": [ -119.08158, 48.36166, 5010.0 ] } },
{ "type": "Feature", "properties": { "name": "Blewett Pass", "id": "352:WA:SNTL", "datasource": "NRCS" }, "geometry": { "type": "Point", "coordinates": [ -120.6796, 47.35037, 4240.0 ] } },
{ "type": "Feature", "properties": { "name": "Sourdough Gulch", "id": "985:WA:SNTL", "datasource": "NRCS" }, "geometry": { "type": "Point", "coordinates": [ -117.39438, 46.23718, 4000.0 ] } },
{ "type": "Feature", "properties": { "name": "Dungeness", "id": "943:WA:SNTL", "datasource": "NRCS" }, "geometry": { "type": "Point", "coordinates": [ -123.0788, 47.87224, 4010.0 ] } },
{ "type": "Feature", "properties": { "name": "Mt. Tebo", "id": "1126:WA:SNTL", "datasource": "NRCS" }, "geometry": { "type": "Point", "coordinates": [ -123.41219, 47.46061, 3384.0 ] } },
{ "type": "Feature", "properties": { "name": "MF Nooksack", "id": "1011:WA:SNTL", "datasource": "NRCS" }, "geometry": { "type": "Point", "coordinates": [ -121.92951, 48.82453, 4970.0 ] } },
{ "type": "Feature", "properties": { "name": "Sawmill Ridge", "id": "1068:WA:SNTL", "datasource": "NRCS" }, "geometry": { "type": "Point", "coordinates": [ -121.42172, 47.15992, 4640.0 ] } },
{ "type": "Feature", "properties": { "name": "Surprise Lakes", "id": "804:WA:SNTL", "datasource": "NRCS" }, "geometry": { "type": "Point", "coordinates": [ -121.76345, 46.09497, 4290.0 ] } },
{ "type": "Feature", "properties": { "name": "Sasse Ridge", "id": "734:WA:SNTL", "datasource": "NRCS" }, "geometry": { "type": "Point", "coordinates": [ -121.06323, 47.38485, 4340.0 ] } },
{ "type": "Feature", "properties": { "name": "Wells Creek", "id": "909:WA:SNTL", "datasource": "NRCS" }, "geometry": { "type": "Point", "coordinates": [ -121.78976, 48.8661, 4030.0 ] } },
{ "type": "Feature", "properties": { "name": "Touchet", "id": "824:WA:SNTL", "datasource": "NRCS" }, "geometry": { "type": "Point", "coordinates": [ -117.8505, 46.11868, 5530.0 ] } },
{ "type": "Feature", "properties": { "name": "Muckamuck", "id": "1259:WA:SNTL", "datasource": "NRCS" }, "geometry": { "type": "Point", "coordinates": [ -119.86624, 48.58526, 4470.0 ] } },
{ "type": "Feature", "properties": { "name": "Mount Crag", "id": "648:WA:SNTL", "datasource": "NRCS" }, "geometry": { "type": "Point", "coordinates": [ -123.026, 47.7637, 3960.0 ] } },
{ "type": "Feature", "properties": { "name": "Upper Wheeler", "id": "841:WA:SNTL", "datasource": "NRCS" }, "geometry": { "type": "Point", "coordinates": [ -120.37015, 47.28734, 4330.0 ] } },
{ "type": "Feature", "properties": { "name": "Potato Hill", "id": "702:WA:SNTL", "datasource": "NRCS" }, "geometry": { "type": "Point", "coordinates": [ -121.51435, 46.34963, 4510.0 ] } },
{ "type": "Feature", "properties": { "name": "Bumping Ridge", "id": "375:WA:SNTL", "datasource": "NRCS" }, "geometry": { "type": "Point", "coordinates": [ -121.33058, 46.81003, 4610.0 ] } },
{ "type": "Feature", "properties": { "name": "Waterhole", "id": "974:WA:SNTL", "datasource": "NRCS" }, "geometry": { "type": "Point", "coordinates": [ -123.42594, 47.94485, 5010.0 ] } },
{ "type": "Feature", "properties": { "name": "White Pass E.S.", "id": "863:WA:SNTL", "datasource": "NRCS" }, "geometry": { "type": "Point", "coordinates": [ -121.38153, 46.64142, 4440.0 ] } },
{ "type": "Feature", "properties": { "name": "Pigtail Peak", "id": "692:WA:SNTL", "datasource": "NRCS" }, "geometry": { "type": "Point", "coordinates": [ -121.38643, 46.62153, 5800.0 ] } },
{ "type": "Feature", "properties": { "name": "Decline Creek", "id": "1319:WA:SNTL", "datasource": "NRCS" }, "geometry": { "type": "Point", "coordinates": [ -121.455, 48.23594, 4480.0 ] } },
{ "type": "Feature", "properties": { "name": "June Lake", "id": "553:WA:SNTL", "datasource": "NRCS" }, "geometry": { "type": "Point", "coordinates": [ -122.15413, 46.14778, 3440.0 ] } },
{ "type": "Feature", "properties": { "name": "Elbow Lake", "id": "910:WA:SNTL", "datasource": "NRCS" }, "geometry": { "type": "Point", "coordinates": [ -121.90893, 48.69092, 3040.0 ] } },
{ "type": "Feature", "properties": { "name": "Bunchgrass Mdw", "id": "376:WA:SNTL", "datasource": "NRCS" }, "geometry": { "type": "Point", "coordinates": [ -117.17633, 48.68688, 5000.0 ] } },
{ "type": "Feature", "properties": { "name": "Satus Pass", "id": "1231:WA:SNTL", "datasource": "NRCS" }, "geometry": { "type": "Point", "coordinates": [ -120.67734, 45.98797, 3960.0 ] } },
{ "type": "Feature", "properties": { "name": "Paradise", "id": "679:WA:SNTL", "datasource": "NRCS" }, "geometry": { "type": "Point", "coordinates": [ -121.74765, 46.78265, 5130.0 ] } },
{ "type": "Feature", "properties": { "name": "Indian Rock", "id": "1129:WA:SNTL", "datasource": "NRCS" }, "geometry": { "type": "Point", "coordinates": [ -120.80767, 45.99077, 5360.0 ] } },
{ "type": "Feature", "properties": { "name": "Park Creek Ridge", "id": "681:WA:SNTL", "datasource": "NRCS" }, "geometry": { "type": "Point", "coordinates": [ -120.91551, 48.44488, 4600.0 ] } },
{ "type": "Feature", "properties": { "name": "Brown Top", "id": "1080:WA:SNTL", "datasource": "NRCS" }, "geometry": { "type": "Point", "coordinates": [ -121.19713, 48.92755, 5830.0 ] } },
{ "type": "Feature", "properties": { "name": "Lynn Lake", "id": "1069:WA:SNTL", "datasource": "NRCS" }, "geometry": { "type": "Point", "coordinates": [ -121.77972, 47.20172, 3900.0 ] } },
{ "type": "Feature", "properties": { "name": "Sheep Canyon", "id": "748:WA:SNTL", "datasource": "NRCS" }, "geometry": { "type": "Point", "coordinates": [ -122.25393, 46.19325, 3990.0 ] } },
{ "type": "Feature", "properties": { "name": "Sentinel Butte", "id": "1043:WA:SNTL", "datasource": "NRCS" }, "geometry": { "type": "Point", "coordinates": [ -118.39843, 48.86133, 4680.0 ] } },
{ "type": "Feature", "properties": { "name": "Grouse Camp", "id": "507:WA:SNTL", "datasource": "NRCS" }, "geometry": { "type": "Point", "coordinates": [ -120.48771, 47.28107, 5390.0 ] } },
{ "type": "Feature", "properties": { "name": "Rex River", "id": "911:WA:SNTL", "datasource": "NRCS" }, "geometry": { "type": "Point", "coordinates": [ -121.60475, 47.30218, 3810.0 ] } },
{ "type": "Feature", "properties": { "name": "Stevens Pass", "id": "791:WA:SNTL", "datasource": "NRCS" }, "geometry": { "type": "Point", "coordinates": [ -121.09288, 47.74607, 3950.0 ] } },
{ "type": "Feature", "properties": { "name": "Corral Pass", "id": "418:WA:SNTL", "datasource": "NRCS" }, "geometry": { "type": "Point", "coordinates": [ -121.46464, 47.01872, 5800.0 ] } },
{ "type": "Feature", "properties": { "name": "Cayuse Pass", "id": "1085:WA:SNTL", "datasource": "NRCS" }, "geometry": { "type": "Point", "coordinates": [ -121.5343, 46.86954, 5240.0 ] } },
{ "type": "Feature", "properties": { "name": "Fish Lake", "id": "478:WA:SNTL", "datasource": "NRCS" }, "geometry": { "type": "Point", "coordinates": [ -121.08553, 47.53565, 3430.0 ] } },
{ "type": "Feature", "properties": { "name": "Calamity", "id": "1109:WA:SNTL", "datasource": "NRCS" }, "geometry": { "type": "Point", "coordinates": [ -122.21633, 45.90362, 2500.0 ] } },
{ "type": "Feature", "properties": { "name": "Skookum Creek", "id": "912:WA:SNTL", "datasource": "NRCS" }, "geometry": { "type": "Point", "coordinates": [ -121.61007, 47.68433, 3310.0 ] } },
{ "type": "Feature", "properties": { "name": "Tinkham Creek", "id": "899:WA:SNTL", "datasource": "NRCS" }, "geometry": { "type": "Point", "coordinates": [ -121.46975, 47.33198, 2990.0 ] } },
{ "type": "Feature", "properties": { "name": "Lone Pine", "id": "591:WA:SNTL", "datasource": "NRCS" }, "geometry": { "type": "Point", "coordinates": [ -121.96288, 46.27143, 3930.0 ] } }
]
}
